{
    "type": "FeatureCollection",
    "features": [
        {
            "type": "Feature",
            "geometry": {
                "type": "Point",
                "coordinates": [
                    -122.67648159999999,
                    45.52306220000002,
                    0
                ]
            },
            "properties": {
                "name": "Portland"
            }
        },
        {
            "type": "Feature",
            "geometry": {
                "type": "Point",
                "coordinates": [
                    174.76333150000005,
                    -36.8484597,
                    0
                ]
            },
            "properties": {
                "name": "Auckland"
            }
        },
        {
            "type": "Feature",
            "geometry": {
                "type": "Point",
                "coordinates": [
                    174.4340691,
                    -36.8362109,
                    0
                ]
            },
            "properties": {
                "name": "Muriwai",
                "description": "First NZ outdoors adventure facilitated by Bryce. Fast moving, pouring rain and amazing views."
            }
        },
        {
            "type": "Feature",
            "geometry": {
                "type": "Point",
                "coordinates": [
                    174.86200540000004,
                    -36.4180983,
                    0
                ]
            },
            "properties": {
                "name": "Kawau Island",
                "description": "First trip with a crew from my first NZ hostel."
            }
        },
        {
            "type": "Feature",
            "geometry": {
                "type": "Point",
                "coordinates": [
                    174.4688092,
                    -36.9530211,
                    0
                ]
            },
            "properties": {
                "name": "Piha",
                "description": "Bought a car and drove it out to this famous beach. Climbed Lion Rock and got rained on."
            }
        },
        {
            "type": "Feature",
            "geometry": {
                "type": "Point",
                "coordinates": [
                    174.822902,
                    -36.6078,
                    0
                ]
            },
            "properties": {
                "name": "Shakespear Regional Park",
                "description": "Tramping across rolling green paddocks."
            }
        },
        {
            "type": "Feature",
            "geometry": {
                "type": "Point",
                "coordinates": [
                    174.87179449999996,
                    -37.8014057,
                    0
                ]
            },
            "properties": {
                "name": "Raglan",
                "description": "Hostel and a show in town that night. Great pizza. Lots of rain. Nice little surfing town. Glow worms!"
            }
        },
        {
            "type": "Feature",
            "geometry": {
                "type": "Point",
                "coordinates": [
                    174.89625,
                    -37.908518,
                    0
                ]
            },
            "properties": {
                "name": "Bridal Veil Falls"
            }
        },
        {
            "type": "Feature",
            "geometry": {
                "type": "Point",
                "coordinates": [
                    174.5744737,
                    -36.1261904,
                    0
                ]
            },
            "properties": {
                "name": "Mangawhai",
                "description": "Hostel the night before skydiving."
            }
        },
        {
            "type": "Feature",
            "geometry": {
                "type": "Point",
                "coordinates": [
                    174.323708,
                    -35.7251117,
                    0
                ]
            },
            "properties": {
                "name": "Whangarei",
                "description": "Skydiving"
            }
        },
        {
            "type": "Feature",
            "geometry": {
                "type": "Point",
                "coordinates": [
                    174.58445970000005,
                    -36.0911227,
                    0
                ]
            },
            "properties": {
                "name": "Mangawhai Heads",
                "description": "Took a hike here with Megan, Colleen, James, Bryce, and Steven."
            }
        },
        {
            "type": "Feature",
            "geometry": {
                "type": "Point",
                "coordinates": [
                    174.55099859999996,
                    -36.9141732,
                    0
                ]
            },
            "properties": {
                "name": "Fairy Falls Track",
                "description": "Great little day hike in the Waitakere range."
            }
        },
        {
            "type": "Feature",
            "geometry": {
                "type": "Point",
                "coordinates": [
                    175.27925300000004,
                    -37.7870012,
                    0
                ]
            },
            "properties": {
                "name": "Hamilton",
                "description": "Ran Round The Bridges, a 12k. Felt great!"
            }
        },
        {
            "type": "Feature",
            "geometry": {
                "type": "Point",
                "coordinates": [
                    175.70044020000003,
                    -36.8218293,
                    0
                ]
            },
            "properties": {
                "name": "Whitianga",
                "description": "Beach bum weekend. Lots of beaches, lots of sun, and a little bit of small town nightlife."
            }
        },
        {
            "type": "Feature",
            "geometry": {
                "type": "Point",
                "coordinates": [
                    175.78992,
                    -36.8282776,
                    0
                ]
            },
            "properties": {
                "name": "Cathedral Cove"
            }
        },
        {
            "type": "Feature",
            "geometry": {
                "type": "Point",
                "coordinates": [
                    175.33175800000004,
                    -37.209435,
                    0
                ]
            },
            "properties": {
                "name": "Miranda Hot Springs",
                "description": "Took a soak at Miranda then got some ice cream. Couldn't have ended that trip more perfectly."
            }
        },
        {
            "type": "Feature",
            "geometry": {
                "type": "Point",
                "coordinates": [
                    174.86721710000006,
                    -36.7898759,
                    0
                ]
            },
            "properties": {
                "name": "Rangitoto Island"
            }
        },
        {
            "type": "Feature",
            "geometry": {
                "type": "Point",
                "coordinates": [
                    174.7957206,
                    -36.2699939,
                    0
                ]
            },
            "properties": {
                "name": "Goat Island Marine Reserve",
                "description": "Saw a sting ray while snorkeling!"
            }
        },
        {
            "type": "Feature",
            "geometry": {
                "type": "Point",
                "coordinates": [
                    175.51548800000003,
                    -36.597095,
                    0
                ]
            },
            "properties": {
                "name": "Waikawau Bay Camping Grounds"
            }
        },
        {
            "type": "Feature",
            "geometry": {
                "type": "Point",
                "coordinates": [
                    175.47400040000002,
                    -36.6319214,
                    0
                ]
            },
            "properties": {
                "name": "Colville"
            }
        },
        {
            "type": "Feature",
            "geometry": {
                "type": "Point",
                "coordinates": [
                    176.09005000000002,
                    -38.648636,
                    0
                ]
            },
            "properties": {
                "name": "Huka Falls"
            }
        },
        {
            "type": "Feature",
            "geometry": {
                "type": "Point",
                "coordinates": [
                    175.8509445,
                    -38.9399177,
                    0
                ]
            },
            "properties": {
                "name": "Lake Taupo Bach\n"
            }
        },
        {
            "type": "Feature",
            "geometry": {
                "type": "Point",
                "coordinates": [
                    172.86209459999998,
                    -34.4257463,
                    0
                ]
            },
            "properties": {
                "name": "Kapowairua (Spirits Bay) campsite"
            }
        },
        {
            "type": "Feature",
            "geometry": {
                "type": "Point",
                "coordinates": [
                    172.68048699999997,
                    -34.4287786,
                    0
                ]
            },
            "properties": {
                "name": "Cape Reinga"
            }
        },
        {
            "type": "Feature",
            "geometry": {
                "type": "Point",
                "coordinates": [
                    173.15327179999997,
                    -35.17133889999999,
                    0
                ]
            },
            "properties": {
                "name": "Ahipara"
            }
        },
        {
            "type": "Feature",
            "geometry": {
                "type": "Point",
                "coordinates": [
                    174.09103449999998,
                    -35.2806679,
                    0
                ]
            },
            "properties": {
                "name": "Paihia"
            }
        },
        {
            "type": "Feature",
            "geometry": {
                "type": "Point",
                "coordinates": [
                    174.1905499,
                    -35.2202401,
                    0
                ]
            },
            "properties": {
                "name": "Sailing and diving\n"
            }
        },
        {
            "type": "Feature",
            "geometry": {
                "type": "Point",
                "coordinates": [
                    174.0752278,
                    -39.0556253,
                    0
                ]
            },
            "properties": {
                "name": "New Plymouth"
            }
        },
        {
            "type": "Feature",
            "geometry": {
                "type": "Point",
                "coordinates": [
                    175.12026300000002,
                    -38.263448,
                    0
                ]
            },
            "properties": {
                "name": "Waitomo Adventure Centre"
            }
        },
        {
            "type": "Feature",
            "geometry": {
                "type": "Point",
                "coordinates": [
                    174.47281910000004,
                    -39.7547982,
                    0
                ]
            },
            "properties": {
                "name": "Patea"
            }
        },
        {
            "type": "Feature",
            "geometry": {
                "type": "Point",
                "coordinates": [
                    175.56886299999996,
                    -39.9364973,
                    0
                ]
            },
            "properties": {
                "name": "Hunterville"
            }
        },
        {
            "type": "Feature",
            "geometry": {
                "type": "Point",
                "coordinates": [
                    174.77623600000004,
                    -41.2864603,
                    0
                ]
            },
            "properties": {
                "name": "Wellington"
            }
        },
        {
            "type": "Feature",
            "geometry": {
                "type": "Point",
                "coordinates": [
                    172.88951859999997,
                    -40.9693911,
                    0
                ]
            },
            "properties": {
                "name": "Canaan Rd"
            }
        },
        {
            "type": "Feature",
            "geometry": {
                "type": "Point",
                "coordinates": [
                    172.80621070000007,
                    -40.8544826,
                    0
                ]
            },
            "properties": {
                "name": "Takaka"
            }
        },
        {
            "type": "Feature",
            "geometry": {
                "type": "Point",
                "coordinates": [
                    173.00098419999995,
                    -41.1240452,
                    0
                ]
            },
            "properties": {
                "name": "Motueka"
            }
        },
        {
            "type": "Feature",
            "geometry": {
                "type": "Point",
                "coordinates": [
                    171.60589030000006,
                    -41.7545216,
                    0
                ]
            },
            "properties": {
                "name": "Westport"
            }
        },
        {
            "type": "Feature",
            "geometry": {
                "type": "Point",
                "coordinates": [
                    172.11148720000006,
                    -41.247636,
                    0
                ]
            },
            "properties": {
                "name": "Karamea"
            }
        },
        {
            "type": "Feature",
            "geometry": {
                "type": "Point",
                "coordinates": [
                    171.5652943,
                    -42.9458038,
                    0
                ]
            },
            "properties": {
                "name": "Arthur's Pass"
            }
        },
        {
            "type": "Feature",
            "geometry": {
                "type": "Point",
                "coordinates": [
                    170.62436630000002,
                    -43.0534424,
                    0
                ]
            },
            "properties": {
                "name": "Lake Ianthe"
            }
        },
        {
            "type": "Feature",
            "geometry": {
                "type": "Point",
                "coordinates": [
                    170.18328840000004,
                    -43.3873293,
                    0
                ]
            },
            "properties": {
                "name": "Franz Josef Glacier"
            }
        },
        {
            "type": "Feature",
            "geometry": {
                "type": "Point",
                "coordinates": [
                    169.4113072,
                    -43.715909100000005,
                    0
                ]
            },
            "properties": {
                "name": "Lake Paringa"
            }
        },
        {
            "type": "Feature",
            "geometry": {
                "type": "Point",
                "coordinates": [
                    169.1320981,
                    -44.703181300000004,
                    0
                ]
            },
            "properties": {
                "name": "Wanaka"
            }
        },
        {
            "type": "Feature",
            "geometry": {
                "type": "Point",
                "coordinates": [
                    168.70576230000006,
                    -44.5059625,
                    0
                ]
            },
            "properties": {
                "name": "W Matukituki Track"
            }
        },
        {
            "type": "Feature",
            "geometry": {
                "type": "Point",
                "coordinates": [
                    167.39462389999994,
                    -45.7962031,
                    0
                ]
            },
            "properties": {
                "name": "Green Lake"
            }
        },
        {
            "type": "Feature",
            "geometry": {
                "type": "Point",
                "coordinates": [
                    167.89738009999996,
                    -44.6414024,
                    0
                ]
            },
            "properties": {
                "name": "Milford Sound"
            }
        },
        {
            "type": "Feature",
            "geometry": {
                "type": "Point",
                "coordinates": [
                    168.66264350000006,
                    -45.0311622,
                    0
                ]
            },
            "properties": {
                "name": "Queenstown"
            }
        },
        {
            "type": "Feature",
            "geometry": {
                "type": "Point",
                "coordinates": [
                    115.26437940000007,
                    -8.5078075,
                    0
                ]
            },
            "properties": {
                "name": "Ubud"
            }
        },
        {
            "type": "Feature",
            "geometry": {
                "type": "Point",
                "coordinates": [
                    103.81983600000001,
                    1.352083,
                    0
                ]
            },
            "properties": {
                "name": "Singapore"
            }
        },
        {
            "type": "Feature",
            "geometry": {
                "type": "Point",
                "coordinates": [
                    104.16984630000002,
                    2.7902494,
                    0
                ]
            },
            "properties": {
                "name": "Tioman Island"
            }
        },
        {
            "type": "Feature",
            "geometry": {
                "type": "Point",
                "coordinates": [
                    103.83611510000003,
                    2.430917,
                    0
                ]
            },
            "properties": {
                "name": "Mersing"
            }
        },
        {
            "type": "Feature",
            "geometry": {
                "type": "Point",
                "coordinates": [
                    101.37663900000007,
                    4.470611,
                    0
                ]
            },
            "properties": {
                "name": "Tanah Rata"
            }
        },
        {
            "type": "Feature",
            "geometry": {
                "type": "Point",
                "coordinates": [
                    101.09010599999999,
                    4.597479,
                    0
                ]
            },
            "properties": {
                "name": "Ipoh"
            }
        },
        {
            "type": "Feature",
            "geometry": {
                "type": "Point",
                "coordinates": [
                    100.32875890000003,
                    5.4141675,
                    0
                ]
            },
            "properties": {
                "name": "Penang"
            }
        },
        {
            "type": "Feature",
            "geometry": {
                "type": "Point",
                "coordinates": [
                    100.74163390000002,
                    4.851932,
                    0
                ]
            },
            "properties": {
                "name": "Taiping"
            }
        },
        {
            "type": "Feature",
            "geometry": {
                "type": "Point",
                "coordinates": [
                    100.793,
                    4.862299999999999,
                    0
                ]
            },
            "properties": {
                "name": "Bukit Larut"
            }
        },
        {
            "type": "Feature",
            "geometry": {
                "type": "Point",
                "coordinates": [
                    100.50176510000006,
                    13.7563309,
                    0
                ]
            },
            "properties": {
                "name": "Bangkok"
            }
        },
        {
            "type": "Feature",
            "geometry": {
                "type": "Point",
                "coordinates": [
                    98.98171630000003,
                    18.706064100000003,
                    0
                ]
            },
            "properties": {
                "name": "Chiang Mai"
            }
        },
        {
            "type": "Feature",
            "geometry": {
                "type": "Point",
                "coordinates": [
                    106.82274499999994,
                    -6.1744651,
                    0
                ]
            },
            "properties": {
                "name": "Special Capital Region of Jakarta"
            }
        },
        {
            "type": "Feature",
            "geometry": {
                "type": "Point",
                "coordinates": [
                    76.2421147,
                    9.9657787,
                    0
                ]
            },
            "properties": {
                "name": "Fort Kochi"
            }
        },
        {
            "type": "Feature",
            "geometry": {
                "type": "Point",
                "coordinates": [
                    76.35216530000002,
                    9.5018293,
                    0
                ]
            },
            "properties": {
                "name": "Alappuzha Boat House"
            }
        },
        {
            "type": "Feature",
            "geometry": {
                "type": "Point",
                "coordinates": [
                    76.63938050000002,
                    12.2958104,
                    0
                ]
            },
            "properties": {
                "name": "Mysuru"
            }
        },
        {
            "type": "Feature",
            "geometry": {
                "type": "Point",
                "coordinates": [
                    76.46002399999998,
                    15.3350132,
                    0
                ]
            },
            "properties": {
                "name": "Hampi"
            }
        },
        {
            "type": "Feature",
            "geometry": {
                "type": "Point",
                "coordinates": [
                    75.67608199999995,
                    15.918622,
                    0
                ]
            },
            "properties": {
                "name": "Badami"
            }
        },
        {
            "type": "Feature",
            "geometry": {
                "type": "Point",
                "coordinates": [
                    75.81635210000002,
                    15.9488181,
                    0
                ]
            },
            "properties": {
                "name": "Pattadakal"
            }
        },
        {
            "type": "Feature",
            "geometry": {
                "type": "Point",
                "coordinates": [
                    75.71003100000007,
                    16.8301708,
                    0
                ]
            },
            "properties": {
                "name": "Vijayapura"
            }
        },
        {
            "type": "Feature",
            "geometry": {
                "type": "Point",
                "coordinates": [
                    75.3433139,
                    19.8761653,
                    0
                ]
            },
            "properties": {
                "name": "Aurangabad"
            }
        },
        {
            "type": "Feature",
            "geometry": {
                "type": "Point",
                "coordinates": [
                    75.17744240000002,
                    20.02334489999999,
                    0
                ]
            },
            "properties": {
                "name": "Ellora Caves"
            }
        },
        {
            "type": "Feature",
            "geometry": {
                "type": "Point",
                "coordinates": [
                    75.70325209999999,
                    20.5518603,
                    0
                ]
            },
            "properties": {
                "name": "Ajanta Caves"
            }
        },
        {
            "type": "Feature",
            "geometry": {
                "type": "Point",
                "coordinates": [
                    75.5626039,
                    21.0076578,
                    0
                ]
            },
            "properties": {
                "name": "Jalgaon"
            }
        },
        {
            "type": "Feature",
            "geometry": {
                "type": "Point",
                "coordinates": [
                    74.87226420000002,
                    31.6339793,
                    0
                ]
            },
            "properties": {
                "name": "Amritsar"
            }
        },
        {
            "type": "Feature",
            "geometry": {
                "type": "Point",
                "coordinates": [
                    76.32127809999997,
                    32.2425758,
                    0
                ]
            },
            "properties": {
                "name": "McLeod Ganj"
            }
        },
        {
            "type": "Feature",
            "geometry": {
                "type": "Point",
                "coordinates": [
                    77.18871450000006,
                    32.2396325,
                    0
                ]
            },
            "properties": {
                "name": "Manali"
            }
        },
        {
            "type": "Feature",
            "geometry": {
                "type": "Point",
                "coordinates": [
                    77.15538820000006,
                    32.3140936,
                    0
                ]
            },
            "properties": {
                "name": "Solang Valley"
            }
        },
        {
            "type": "Feature",
            "geometry": {
                "type": "Point",
                "coordinates": [
                    77.58128490000001,
                    32.9070162,
                    0
                ]
            },
            "properties": {
                "name": "Sarchu"
            }
        },
        {
            "type": "Feature",
            "geometry": {
                "type": "Point",
                "coordinates": [
                    77.57705349999992,
                    34.15258639999999,
                    0
                ]
            },
            "properties": {
                "name": "Leh"
            }
        },
        {
            "type": "Feature",
            "geometry": {
                "type": "Point",
                "coordinates": [
                    77.21509689999993,
                    34.2931656,
                    0
                ]
            },
            "properties": {
                "name": "Likir Gompa"
            }
        },
        {
            "type": "Feature",
            "geometry": {
                "type": "Point",
                "coordinates": [
                    78.45956439999998,
                    33.9078735,
                    0
                ]
            },
            "properties": {
                "name": "Spangmik"
            }
        },
        {
            "type": "Feature",
            "geometry": {
                "type": "Point",
                "coordinates": [
                    76.82740710000007,
                    34.8474964,
                    0
                ]
            },
            "properties": {
                "name": "Turtuk"
            }
        },
        {
            "type": "Feature",
            "geometry": {
                "type": "Point",
                "coordinates": [
                    77.26673619999997,
                    33.9802502,
                    0
                ]
            },
            "properties": {
                "name": "Skiu"
            }
        },
        {
            "type": "Feature",
            "geometry": {
                "type": "Point",
                "coordinates": [
                    77.42752080000001,
                    33.8897975,
                    0
                ]
            },
            "properties": {
                "name": "Markha"
            }
        },
        {
            "type": "Feature",
            "geometry": {
                "type": "Point",
                "coordinates": [
                    77.50640220000003,
                    33.83082390000001,
                    0
                ]
            },
            "properties": {
                "name": "Hankar"
            }
        },
        {
            "type": "Feature",
            "geometry": {
                "type": "Point",
                "coordinates": [
                    77.61741669999992,
                    33.7903333,
                    0
                ]
            },
            "properties": {
                "name": "Nymaling Base Camp"
            }
        },
        {
            "type": "Feature",
            "geometry": {
                "type": "Point",
                "coordinates": [
                    77.66948330000002,
                    33.8298333,
                    0
                ]
            },
            "properties": {
                "name": "Gongmaru La"
            }
        },
        {
            "type": "Feature",
            "geometry": {
                "type": "Point",
                "coordinates": [
                    85.31026099999997,
                    27.7151941,
                    0
                ]
            },
            "properties": {
                "name": "Thamel, Kathmandu"
            }
        },
        {
            "type": "Feature",
            "geometry": {
                "type": "Point",
                "coordinates": [
                    84.36931959999993,
                    28.2910103,
                    0
                ]
            },
            "properties": {
                "name": "Bhulbhule"
            }
        },
        {
            "type": "Feature",
            "geometry": {
                "type": "Point",
                "coordinates": [
                    84.38574419999998,
                    28.1962471,
                    0
                ]
            },
            "properties": {
                "name": "Besisahar"
            }
        },
        {
            "type": "Feature",
            "geometry": {
                "type": "Point",
                "coordinates": [
                    84.41070079999997,
                    27.9653695,
                    0
                ]
            },
            "properties": {
                "name": "Dumre"
            }
        },
        {
            "type": "Feature",
            "geometry": {
                "type": "Point",
                "coordinates": [
                    84.40659679999999,
                    28.4146753,
                    0
                ]
            },
            "properties": {
                "name": "Jagat"
            }
        },
        {
            "type": "Feature",
            "geometry": {
                "type": "Point",
                "coordinates": [
                    84.32741620000002,
                    28.5339906,
                    0
                ]
            },
            "properties": {
                "name": "Danakyu"
            }
        },
        {
            "type": "Feature",
            "geometry": {
                "type": "Point",
                "coordinates": [
                    84.1755295,
                    28.6044172,
                    0
                ]
            },
            "properties": {
                "name": "Dhikur Pokhari"
            }
        },
        {
            "type": "Feature",
            "geometry": {
                "type": "Point",
                "coordinates": [
                    84.052577,
                    28.6502982,
                    0
                ]
            },
            "properties": {
                "name": "Munchi"
            }
        },
        {
            "type": "Feature",
            "geometry": {
                "type": "Point",
                "coordinates": [
                    84.0616322,
                    28.6800085,
                    0
                ]
            },
            "properties": {
                "name": "Ice Lake"
            }
        },
        {
            "type": "Feature",
            "geometry": {
                "type": "Point",
                "coordinates": [
                    84.016667,
                    28.666666999999993,
                    0
                ]
            },
            "properties": {
                "name": "Manang"
            }
        },
        {
            "type": "Feature",
            "geometry": {
                "type": "Point",
                "coordinates": [
                    83.97306200000003,
                    28.7390207,
                    0
                ]
            },
            "properties": {
                "name": "Ledar"
            }
        },
        {
            "type": "Feature",
            "geometry": {
                "type": "Point",
                "coordinates": [
                    83.96718620000001,
                    28.7829782,
                    0
                ]
            },
            "properties": {
                "name": "Thorung High Camp"
            }
        },
        {
            "type": "Feature",
            "geometry": {
                "type": "Point",
                "coordinates": [
                    83.93866900000002,
                    28.79337769999999,
                    0
                ]
            },
            "properties": {
                "name": "Thorong La"
            }
        },
        {
            "type": "Feature",
            "geometry": {
                "type": "Point",
                "coordinates": [
                    83.87148869999999,
                    28.816515100000004,
                    0
                ]
            },
            "properties": {
                "name": "Muktinath"
            }
        },
        {
            "type": "Feature",
            "geometry": {
                "type": "Point",
                "coordinates": [
                    83.570964,
                    28.869631500000004,
                    0
                ]
            },
            "properties": {
                "name": "Kagbeni"
            }
        },
        {
            "type": "Feature",
            "geometry": {
                "type": "Point",
                "coordinates": [
                    83.64332200000003,
                    28.6090953,
                    0
                ]
            },
            "properties": {
                "name": "Ghasa"
            }
        },
        {
            "type": "Feature",
            "geometry": {
                "type": "Point",
                "coordinates": [
                    83.6432719,
                    28.709221,
                    0
                ]
            },
            "properties": {
                "name": "Tukuche"
            }
        },
        {
            "type": "Feature",
            "geometry": {
                "type": "Point",
                "coordinates": [
                    83.64332200000003,
                    28.6090953,
                    0
                ]
            },
            "properties": {
                "name": "Ghasa"
            }
        },
        {
            "type": "Feature",
            "geometry": {
                "type": "Point",
                "coordinates": [
                    83.6188793,
                    28.494432700000004,
                    0
                ]
            },
            "properties": {
                "name": "Tatopani"
            }
        },
        {
            "type": "Feature",
            "geometry": {
                "type": "Point",
                "coordinates": [
                    83.69998559999999,
                    28.4007902,
                    0
                ]
            },
            "properties": {
                "name": "Ghode Pani"
            }
        },
        {
            "type": "Feature",
            "geometry": {
                "type": "Point",
                "coordinates": [
                    83.76489420000007,
                    28.396318,
                    0
                ]
            },
            "properties": {
                "name": "Tadapani"
            }
        },
        {
            "type": "Feature",
            "geometry": {
                "type": "Point",
                "coordinates": [
                    83.8260884,
                    28.4632789,
                    0
                ]
            },
            "properties": {
                "name": "Ghandruk"
            }
        },
        {
            "type": "Feature",
            "geometry": {
                "type": "Point",
                "coordinates": [
                    83.99558789999992,
                    28.237987,
                    0
                ]
            },
            "properties": {
                "name": "Pokhara"
            }
        },
        {
            "type": "Feature",
            "geometry": {
                "type": "Point",
                "coordinates": [
                    144.96327999999994,
                    -37.814107,
                    0
                ]
            },
            "properties": {
                "name": "Melbourne"
            }
        },
        {
            "type": "Feature",
            "geometry": {
                "type": "Point",
                "coordinates": [
                    174.7609519,
                    -36.8609664,
                    0
                ]
            },
            "properties": {
                "name": "1 St Benedicts St, Eden Terrace, Auckland 1010, New Zealand"
            }
        },
        {
            "type": "Feature",
            "geometry": {
                "type": "Point",
                "coordinates": [
                    174.434069,
                    -36.8362122,
                    0
                ]
            },
            "properties": {
                "name": "Muriwai"
            }
        },
        {
            "type": "Feature",
            "geometry": {
                "type": "Point",
                "coordinates": [
                    174.7633295,
                    -36.8484647,
                    0
                ]
            },
            "properties": {
                "name": "Auckland"
            }
        },
        {
            "type": "Feature",
            "geometry": {
                "type": "Point",
                "coordinates": [
                    174.7732999,
                    -36.4427438,
                    0
                ]
            },
            "properties": {
                "name": "114 Scandrett Rd, Mahurangi East 0982, New Zealand"
            }
        }
    ]
}
